latitude	longitude	name	parsed
42.1417442	-71.2495096	Walpole	Walpole, MA, USA
42.283333	-71.35	Natick	Natick, MA, USA
42.2070391	-71.6856236	Grafton	Grafton, MA, USA
42.3600825	-71.0588801	Boston	Boston, MA, USA
41.4558899	-70.6141097	Tisbury	Tisbury, MA, USA
42.4072107	-71.3824374		Massachusetts, USA
42.3600825	-71.0588801	[Boston]	Boston, MA, USA
41.647872	-70.4819674	[Mashpee?]	Mashpee, MA, USA
41.647872	-70.4819674	Mashpee	Mashpee, MA, USA
42.8125913	-70.87727509999999	Newpuryport	Newburyport, MA, USA
41.8470056	-71.2393933	Rehoboth	Rehoboth, MA, USA
41.9903519	-70.9750541	Bridgewater	Bridgewater, MA, USA
42.116667	-70.816667	Hanover	Hanover, MA, USA
42.0433661	-71.9276033	Dudley	Dudley, MA, USA
42.4229047	-72.10510020000001	Barre	Barre, MA, USA
41.3744317	-70.47294339999999	Chappaquiddick	Chappaquiddick Island, Edgartown, MA 02539, USA
41.34372279999999	-70.81475230000001	Gayhead	Gay Head, Aquinnah, MA 02535, USA
41.3890052	-70.5133599	Edgartown	Edgartown, MA, USA
42.0334341	-70.9592096	East Bridgewater	East Bridgewater, MA, USA
41.2834704	-70.099451	Nantucket	Nantucket, MA, USA
42.673417	-72.82176179999999	Heath	Heath, MA, USA
42.3517585	-71.8634062	Holden	Holden, MA, USA
42.3484207	-73.01510110000001	Middlefield	Middlefield, MA, USA
42.19207189999999	-71.761522	Millbury	Millbury, MA, USA
42.459188	-72.8913714	Cummington	Cummington, MA, USA
42.3250896	-72.64120129999999	Northampton	Northampton, MA, USA
42.1619739	-71.042551	Randolph	Randolph, MA, USA
42.5437035	-71.6495176	Shirley	Shirley, MA, USA
42.5292597	-71.3495046	Carlisle	Carlisle, MA, USA
42.5256563	-71.0952891	Reading	Reading, MA, USA
42.367	-72.517	Amherst	Amherst, MA, USA
41.900101	-71.0897674	Taunton	Taunton, MA, USA
42.7762015	-71.0772796	Haverhill	Haverhill, MA, USA
42.46676300000001	-70.9494938	Lynn	Lynn, MA, USA
42.627862	-72.86981829999999	Charlemont	Charlemont, MA, USA
42.0834313	-71.396725	Franklin	Franklin, MA, USA
42.3667589	-71.78562699999999	West Boylston	West Boylston, MA, USA
42.3121798	-71.2205981	Newton Upper Falls	Newton Upper Falls, Newton, MA, USA
42.4850931	-71.43284	Acton	Acton, MA, USA
42.3709299	-71.1828321	Watertown	Watertown, MA, USA
42.49995819999999	-70.8578024	Marblehead	Marblehead, MA, USA
42.2959267	-71.71284709999999	Shrewsbury	Shrewsbury, MA, USA
42.5750883	-71.998133	Gardner	Gardner, MA, USA
42.4837752	-72.186669	Petersham	Petersham, MA, USA
41.9932752	-70.7284785	Kingston	Kingston, MA, USA
42.0917453	-70.7055871	Marshfield	Marshfield, MA, USA
42.635545	-71.90973939999999	Ashburnham	Ashburnham, MA, USA
42.245926	-71.90868429999999	Leicester	Leicester, MA, USA
42.7695348	-71.0758905	Bradford	Bradford, Haverhill, MA 01835, USA
42.2436085	-71.1676536	Dedham	Dedham, MA, USA
42.1056525	-71.5522859	Mendon	Mendon, MA, USA
42.195929	-70.7258633	Scituate	Scituate, MA, USA
42.6583356	-71.1367953	Andover	Andover, MA, USA
41.7589615	-70.49393169999999	Sandwich	Sandwich, MA, USA
42.3695086	-71.9481211	Rutland	Rutland, MA, USA
41.7014912	-71.1550451	Fall River	Fall River, MA, USA
41.6376043	-70.90364869999999	Fair Haven	Fairhaven, MA, USA
42.6334247	-71.31617179999999	Lowell	Lowell, MA, USA
42.1048228	-70.9453218	Abington	Abington, MA, USA
42.20009659999999	-71.4245049	Holliston	Holliston, MA, USA
42.266757	-72.66897999999999	Easthampton	Easthampton, MA, USA
42.3028667	-72.7745382	Westhampton	Westhampton, MA, USA
42.5584283	-70.880049	Beverly	Beverly, MA, USA
41.686111	-70.07638899999999	Harwich	Harwich, MA, USA
42.3667625	-71.3031132	Weston	Weston, MA, USA
41.7600902	-70.0827905	Brewster	Brewster, MA, USA
41.7938406	-71.1448516	Bristol County	Bristol County, MA, USA
42.2079017	-71.0040013	Braintree	Braintree, MA, USA
42.5039395	-71.0723391	South Reading	Wakefield, MA, USA
42.5459227	-71.91063079999999	Westminster	Westminster, MA, USA
42.07724289999999	-71.6302532	Uxbridge	Uxbridge, MA, USA
42.5750009	-70.93212199999999	Danvers	Danvers, MA, USA
42.3151978	-71.0913748	Roxbury	Roxbury, Boston, MA, USA
42.7595355	-70.94751029999999	New Rowley and Byfield	Byfield, Newbury, MA 01922, USA
42.30163049999999	-71.067605	Dorchester	Dorchester, Boston, MA, USA
42.51954	-70.8967155	Salem	Salem, MA, USA
42.2180724	-70.94103559999999	Weymouth	Weymouth, MA, USA
42.8525821	-70.94279139999999	Amesbury and Salisbury	Amesbury, USA
41.9903519	-70.9750541	North Bridgewater	Bridgewater, MA, USA
42.3889953	-71.69081419999999	Boylston	Boylston, MA, USA
42.0584412	-70.1786425	Provincetown	Provincetown, MA, USA
42.8125913	-70.87727509999999	Newburyport	Newburyport, MA, USA
41.99121299999999	-70.86198499999999	Halifax	Halifax, MA, USA
42.4792618	-71.1522765	Woburn	Woburn, MA, USA
42.2591729	-72.57479339999999	South Hadley	South Hadley, MA, USA
42.6042514	-72.7392588	Shelburne Falls	Shelburne Falls, MA 01370, USA
42.5275853	-72.946764	West Hawley	West Hawley, Plainfield, MA 01070, USA
42.6408105	-72.4996367	Gill	Gill, MA, USA
42.6112018	-71.5745152	Groton	Groton, MA, USA
42.4651421	-71.0110473	Saugus	Saugus, MA, USA
42.1417641	-71.3967256	Medway	Medway, MA, USA
42.3114889	-71.9278427	Paxton	Paxton, MA, USA
42.1744878	-71.6022583	Upton	Upton, MA, USA
41.7003208	-70.3002024	Barnstable	Barnstable, MA, USA
42.766667	-70.84583300000001	Newbury	Newbury, MA, USA
42.0751892	-70.8800187	Hanson	Hanson, MA, USA
42.2139817	-72.1022991	Brookfield	Brookfield, MA, USA
42.5834228	-71.8022955	Fitchburg	Fitchburg, MA, USA
42.2625932	-71.8022934	Worcester	Worcester, MA, USA
42.59593290000001	-72.2267383	Athol	Athol, MA, USA
42.4072107	-71.3824374	Herring Pond plantation	Massachusetts, USA
42.6159285	-70.6619888	Gloucester	Gloucester, MA, USA
42.0667652	-71.3281114	North Wrentham	Wrentham, MA, USA
41.8834363	-70.7625376	Carver	Carver, MA, USA
42.1014831	-72.589811	Springfield	Springfield, MA, USA
42.4603719	-71.3489484	Concord	Concord, MA, USA
42.4834197	-71.5167139	Boxborough	Boxborough, MA, USA
42.2792551	-72.978712	Chester	Chester, MA, USA
42.2418172	-70.889759	Hingham	Hingham, MA, USA
42.125	-71.102778	Stoughton	Stoughton, MA, USA
42.4407187	-72.7993986	Goshen	Goshen, MA, USA
42.4737009	-72.0061877	Hubbardston	Hubbardston, MA, USA
42.0751065	-72.0333905	Southbridge	Southbridge, MA, USA
42.6791832	-70.8411558	Ipswich	Ipswich, MA, USA
42.6556505	-70.620363	Rockport	Rockport, MA, USA
42.2685574	-72.08503999999999	North Brookfield	North Brookfield, MA, USA
41.7695425	-71.12861939999999	Somerset	Somerset, MA, USA
41.94454409999999	-71.2856082	Attleboro	Attleboro, MA, USA
42.3917638	-71.0328284	Chelsea	Chelsea, MA, USA
42.5000919	-71.5828444	Harvard	Harvard, MA, USA
42.3782065	-71.0602131	Charlestown	Charlestown, Boston, MA, USA
42.6871009	-72.0439529	Winchendon	Winchendon, MA, USA
42.0653768	-71.2478308	Foxborough	Foxborough, Foxborough, MA 02035, USA
42.3195556	-71.6411997	Northborough	Northborough, MA, USA
42.2495321	-71.0661653	Milton	Milton, MA, USA
42.1584324	-71.1447732	Canton	Canton, MA, USA
42.5250906	-71.759794	Leominster	Leominster, MA, USA
42.43342579999999	-71.6078449	Bolton	Bolton, MA, USA
42.4430372	-71.2289641	Lexington	Lexington, MA, USA
42.3600825	-71.0588801	Boston, Massachusetts	Boston, MA, USA
42.4072107	-71.3824374	Massachusetts	Massachusetts, USA
42.587915	-72.5994104	Greenfield	Greenfield, MA, USA
42.2353463	-72.14116419999999	West Brookfield	West Brookfield, MA, USA
42.543138	-73.32371820000002	Hancock	Hancock, MA, USA
42.5620278	-73.162881	Cheshire	Cheshire, MA, USA
42.4584292	-71.0661633	Melrose	Melrose, MA, USA
42.577834	-70.7675967	Manchester	Manchester-by-the-Sea, MA, USA
42.35271050000001	-72.0449783	Oakham	Oakham, MA, USA
42.4250964	-71.066163	Malden	Malden, MA, USA
42.4072107	-71.3824374	Peterstrom	Massachusetts, USA
42.66675	-73.01121169999999	Florida	Florida, MA, USA
28.5055159	-81.3305086	Dovers	Massachusetts Street, Orlando, FL 32812, USA
42.3459271	-71.5522874	Marlborough	Marlborough, MA, USA
42.4072107	-71.3824374	Fitchburg and vicinity	Massachusetts, USA
42.2125423	-72.19118499999999	Warren	Warren, MA, USA
42.84172299999999	-70.8605982	Salisbury	Salisbury, MA, USA
42.1167606	-71.8647577	Oxford	Oxford, MA, USA
42.2612067	-71.4633956	Ashland	Ashland, MA, USA
42.6703687	-71.3020052	Dracut	Dracut, MA, USA
42.41676349999999	-71.68290809999999	Clinton	Clinton, MA, USA
42.0189894	-71.00782149999999	West Bridgewater	West Bridgewater, MA, USA
42.4374156	-71.76062929999999	Sterling	Sterling, MA, USA
42.4906231	-71.2760089	Bedford	Bedford, MA, USA
42.3931455	-72.40369609999999	Pelham	Pelham, MA, USA
42.35	-72.2	Hardwick	Hardwick, MA, USA
42.6959093	-72.4528885	Northfield	Northfield, MA, USA
42.1516323	-71.6494407	Northbridge	Northbridge, MA, USA
42.4736959	-73.1662138	Dalton	Dalton, MA, USA
42.1500353	-71.7632878	Sutton	Sutton, MA, USA
42.6242251	-73.1174344	Adams	Adams, MA, USA
42.279286	-71.4161565	Framingham	Framingham, MA, USA
41.638889	-71.05	Westport	Westport, MA, USA
42.4556452	-71.6731242	Lancaster	Lancaster, MA, USA
42.5945273	-71.7245035	Lunenburg	Lunenburg, MA, USA
42.5264745	-72.788426	Ashfield	Ashfield, MA, USA
42.0695393	-72.22230069999999	Wales	Wales, MA, USA
41.9667703	-71.1869963	Norton	Norton, MA, USA
42.7000837	-72.6300909	Leyden	Leyden, MA, USA
42.50425509999999	-72.3320289	New Salem	New Salem, MA, USA
42.4259283	-71.3039469	Lincoln	Lincoln, MA, USA
41.9584457	-70.6672621	Plymouth	Plymouth, MA, USA
42.6820293	-72.33897429999999	Warwick	Warwick, MA, USA
42.1398577	-71.5163049	Milford	Milford, MA, USA
42.1125914	-73.1431637	Sandisfield	Sandisfield, MA, USA
41.6362152	-70.93420499999999	New Bedford	New Bedford, MA, USA
42.63620520000001	-70.8431049	Hamilton	Hamilton, MA, USA
42.0245442	-71.1286594	Easton	Easton, MA, USA
41.7056291	-70.2286681	Yarmouth	Yarmouth, MA, USA
41.8929942	-70.9107708	Middleborough	Middleborough, MA, USA
42.76036879999999	-71.0314451	Groveland	Groveland, MA, USA
42.590354	-72.3097914	Orange	Orange, MA, USA
41.7426094	-70.1619638	East Dennis	East Dennis, Dennis, MA, USA
42.2797554	-71.1626756	West Roxbury	West Roxbury, Boston, MA, USA
42.555644	-72.06757900000001	Templeton	Templeton, MA, USA
42.3463503	-71.1626756	Brighton	Brighton, Boston, MA, USA
42.5372893	-71.5128022	Littleton	Littleton, MA, USA
42.4184296	-71.1061639	Medford	Medford, MA, USA
41.705833	-70.1625	South Dennis	South Dennis, Dennis, MA, USA
42.452303	-71.1369959	Winchester	Winchester, MA, USA
42.5750009	-70.93212199999999	South Danvers	Danvers, MA, USA
42.6375941	-70.9495053	Topsfield	Topsfield, MA, USA
42.4663727	-72.5795115	Sunderland	Sunderland, MA, USA
42.0417525	-70.6722767	Duxbury	Duxbury, MA, USA
42.53869	-71.0465638	Lynnfield	Lynnfield, MA, USA
42.017778	-71.54166699999999	Blackstone	Blackstone, MA, USA
42.05009099999999	-71.88006279999999	Webster	Webster, MA, USA
42.33176419999999	-71.1211635	Brookline	Brookline, MA, USA
42.7070354	-71.1631137	Lawrence	Lawrence, MA, USA
42.3917638	-71.0328284	North Chelsea	Chelsea, MA, USA
42.5998139	-71.3672838	Chelmsford	Chelmsford, MA, USA
42.0667652	-71.3281114	Wrentham	Wrentham, MA, USA
42.4072107	-71.3824374	Groton Junction Village	Massachusetts, USA
41.93054679999999	-70.03097530000001	Wellfleet	Wellfleet, MA, USA
42.3736158	-71.10973349999999	Cambridge	Cambridge, MA, USA
42.42651619999999	-70.9188695	Nahant	Nahant, MA, USA
42.5355277	-72.5353437	Montague	Montague, MA, USA
42.69870239999999	-71.1350575	North Andover	North Andover, MA, USA
42.5584218	-71.2689461	Billerica	Billerica, MA, USA
42.4500845	-73.2453824	Pittsfield	Pittsfield, MA, USA
41.9903519	-70.9750541	South Bridgewater	Bridgewater, MA, USA
42.3774469	-71.13593929999999	West Cambridge	West Cambridge, Cambridge, MA, USA
41.8834363	-70.7625376	Carver and Plymouth county	Carver, MA, USA
41.99477	-70.0490107	Truro	Truro, MA, USA
42.23898570000001	-71.3697813	Sherborn	Sherborn, MA, USA
42.0548167	-72.7703724	Southwick	Southwick, MA, USA
42.2439682	-71.9922867	Spencer	Spencer, MA, USA
41.7898354	-69.9897323	Orleans	Orleans, MA, USA
42.6106478	-71.23422479999999	Tewksbury	Tewksbury, MA, USA
41.813889	-71.12083299999999	Dighton	Dighton, MA, USA
42.3764852	-71.2356113	Waltham	Waltham, MA, USA
42.4850931	-71.43284	South Acton	Acton, MA, USA
41.8299634	-69.97403609999999	Eastham	Eastham, MA, USA
41.6698985	-70.1171493	West Harwich	West Harwich, Harwich, MA 02671, USA
41.3922428	-70.6382857	Deep Botom, Tisbury	Deep Bottom, West Tisbury, MA 02568, USA
42.3595761	-71.1077157	Cambridgeport	Cambridgeport, Cambridge, MA, USA
41.6667779	-70.1847413	South Yarmouth	South Yarmouth, Yarmouth, MA, USA
40.712784	-74.005941	New York	New York, New York, USA
41.38122449999999	-70.6744723	West Tisbury	West Tisbury, MA, USA
41.9487077	-71.0731162	Raynham	Raynham, MA, USA
41.8239891	-71.4128343	Providence, Rhode Island	Providence, RI, USA
42.1084122	-72.0787059	Sturbridge	Sturbridge, MA, USA
42.51954	-70.8967155	[Salem?]	Salem, MA, USA
42.0714925	-70.80919999999999	Pembroke	Pembroke, MA, USA
42.1099885	-73.35514359999999	Sheffield	Sheffield, MA, USA
42.4072107	-71.3824374	Mashpee Plantation	Massachusetts, USA
41.421875	-70.675143	Christiantown	Christiantown Road, Vineyard Haven, MA 02568, USA
42.36592	-73.116214	Washington D.C.	Washington, MA, USA
42.7695348	-71.0758905	Haverhill; Bradford	Bradford, Haverhill, MA 01835, USA
41.3744317	-70.47294339999999	Chappequiddic [Edgartown]	Chappaquiddick Island, Edgartown, MA 02539, USA
42.6667718	-71.70512649999999	Townsend	Townsend, MA, USA
41.6376043	-70.90364869999999	Fairhaven	Fairhaven, MA, USA
42.3370413	-71.20922139999999	Newton	Newton, MA, USA
42.7250918	-70.99116590000001	Georgetown	Georgetown, MA, USA
42.122778	-73.22916699999999	New Marlborough	New Marlborough, MA, USA
42.63195820000001	-70.7829315	Essex	Essex, MA, USA
42.1225482	-72.2005059	Brimfield	Brimfield, MA, USA
42.5792583	-71.4378411	Westford	Westford, MA, USA
42.4802469	-71.0999719	Stoneham	Stoneham, MA, USA
41.908433	-71.3619997	South Attleboro	South Attleboro, Attleboro, MA 02703, USA
41.808434	-71.3369972	Seekonk	Seekonk, MA, USA
42.3834278	-71.4161725	Sudbury	Sudbury, MA, USA
42.4487019	-71.877296	Princeton	Princeton, MA, USA
42.8014795	-70.989778	West Newbury	West Newbury, MA, USA
42.3056501	-71.5245087	Southborough	Southborough, MA, USA
41.878711	-71.38255579999999	Pawtucket	Pawtucket, RI, USA
42.1237206	-72.431586	South Wilbraham	Wilbraham, MA, USA
42.4430372	-71.2289641	[Lexington?]	Lexington, MA, USA
42.3284483	-71.0854325	Boston, Brookline	Boston, MA, USA
42.2459215	-73.20371709999999	Tyringham	Tyringham, MA, USA
42.4850931	-71.43284	[Acton?]	Acton, MA, USA
42.1250929	-72.749538	Westfield	Westfield, MA, USA
42.03345650000001	-71.2190578	Mansfield	Mansfield, MA, USA
42.6791832	-70.8411558	[Ipswich?]	Ipswich, MA, USA
41.9203804	-70.7994831	North Carver	North Carver, Carver, MA 02330, USA
42.1306522	-71.5411747	Hopedale	Hopedale, Hopedale, MA, USA
42.3597148	-71.726659	Boylston, West Boylston	Boylston, MA, USA
42.2020445	-71.014118	Weymouth, Braintree	Braintree, MA, USA
42.5750009	-70.93212199999999	New Mills, Danvers	Danvers, MA, USA
42.2528772	-71.0022705	Quincy	Quincy, MA, USA
41.7056291	-70.2286681	Barnstable, Yarmouth	Yarmouth, MA, USA
42.22869540000001	-71.5225646	Hopkinton	Hopkinton, MA, USA
42.2436085	-71.1676536	South Dedham	Dedham, MA, USA
42.0666417	-70.85064360000001	Pembroke, Hanson	Hanson, Hanson, MA, USA
42.1292671	-70.949489	North Abington	North Abington, Abington, MA 02351, USA
41.9695516	-71.35654389999999	North Attleboro	North Attleborough, MA, USA
42.2287065	-71.5225638	Hopkinton and Milford	Hopkinton, Hopkinton, MA 01748, USA
41.7589615	-70.49393169999999	Barnstable, Sandwich	Sandwich, MA, USA
42.0867608	-71.47458809999999	Bellingham	Bellingham, MA, USA
42.1237053	-72.43147309999999	Monson, Wilbraham	Wilbraham, Wilbraham, MA 01095, USA
42.1236499	-71.1786237	Sharon	Sharon, MA, USA
42.238986	-71.369781	Sherburne	, MA, USA
42.1237206	-72.431586	Wilbraham	Wilbraham, MA, USA
41.6820897	-69.95976639999999	Chatham	Chatham, MA, USA
41.7353062	-70.1939429	Dennis	Dennis, MA, USA
42.2770346	-72.4008884	Belchertown	Belchertown, MA, USA
41.6130323	-70.9704787	Dartmouth	Dartmouth, MA, USA
42.3812039	-71.63701209999999	Berlin	Berlin, MA, USA
42.4398101	-72.6348118	Whately	Whately, MA, USA
42.3625953	-71.3614484	Wayland	Wayland, MA, USA
42.85839250000001	-70.93003759999999	Amesbury	Amesbury, MA, USA
42.6000863	-72.3981416	Erving	Erving, MA, USA
41.772778	-71.027222	Freetown	Freetown, MA, USA
42.3167581	-72.12591139999999	New Braintree	New Braintree, MA, USA
42.6710048	-72.5483277	Bernardston	Bernardston, MA, USA
41.5532208	-70.60858859999999	Falmouth	Falmouth, MA, USA
42.3709761	-72.5981843	Hatfield	Hatfield, MA, USA
42.6691846	-71.4180622	Tyngsborough, Dunstable	Tyngsborough, USA
42.2809285	-71.23775479999999	Needham	Needham, MA, USA
41.7549658	-70.8452677	Rochester	Rochester, MA, USA
42.2809285	-71.23775479999999	East Needham	Needham, MA, USA
42.15502499999999	-70.953302	South Weymouth	South Weymouth, Weymouth, MA 02190, USA
42.116667	-70.816667	South Scituate, Hanover	Hanover, MA, USA
42.66592319999999	-71.5884363	Pepperell	Pepperell, MA, USA
42.5750883	-71.998133	South Gardner	Gardner, MA, USA
42.4519581	-72.5011335	Leverett	Leverett, MA, USA
42.34635	-71.162676	Brighton Corner	Brighton, Boston, MA, USA
42.421944	-72.227500	Dana	Dana, MA
42.721944	-72.941389	Monroe	Monroe, MA, USA
42.1584103	-72.3286869	Palmer	Palmer, MA, USA
42.1487043	-72.6078672	Chicopee	Chicopee, MA, USA
42.4370374	-71.5056199	Stow	Stow, MA, USA
42.51954	-70.8967155	Massachusetts, Salem	Salem, MA, USA
42.3868145	-71.5683033	Feltonville	Feltonville Road, Hudson, MA 01749, USA
39.2834233	-76.6840263	Baltimore, MD	Massachusetts Avenue, Baltimore, MD 21229, USA
41.647872	-70.4819674	Marshpee	Mashpee, MA, USA
41.3922428	-70.6382857	Deep Bottom, Tisbury	Deep Bottom, West Tisbury, MA 02568, USA
41.3744317	-70.47294339999999	Chappequiddic	Chappaquiddick Island, Edgartown, MA 02539, USA
42.2418172	-70.889759	South Hingham	Hingham, MA, USA
42.7051144	-70.90712359999999	Essex County	Essex County, MA, USA
41.6698985	-70.1171493	West Harwich, South Dennis	West Harwich, Harwich, MA 02671, USA
42.13565	-71.970074	Charlton	Charlton, MA, USA
42.3497948	-71.2250533	West Newton	West Newton, Newton, MA, USA
42.335505	-72.6719853	Florence	Florence, Northampton, MA, USA
42.3522866	-71.0504229	Suffolk County	Suffolk County, MA, USA
42.195929	-70.7258633	South Scituate	Scituate, MA, USA
42.391754	-72.839817	Chesterfield, Worthington, Huntington	Chesterfield, MA
42.105653	-71.552286	Mendon, Uxbridge, Blackstone	Mendon, MA
42.072319	-71.71340169999999	East Douglas	East Douglas, Douglas, MA, USA
42.4381417	-73.0459339	Peru	Peru, MA, USA
42.5667512	-73.0287112	Savoy	Savoy, MA, USA
42.1792563	-73.21205259999999	Monterey	Monterey, MA, USA
41.8470056	-71.2393933	North Rehobath	Rehoboth, MA, USA
41.748162	-71.1895617	Swansea	Swansea, MA, USA
42.2689838	-71.5239529	Cordaville	Cordaville, Southborough, MA, USA
42.5000882	-72.4342527	Lock's Village	Locks Village, Shutesbury, MA 01072, USA
41.6487214	-70.3480787	Centreville	Centerville, Barnstable, MA 02632, USA
41.8929942	-70.9107708	Middleboro	Middleborough, MA, USA
42.0695391	-72.61481169999999	Agawam	Agawam, MA, USA
42.233522	-72.879602	Huntington, Worthington, Chesterfield	Huntington, MA
41.6524911	-70.2881124	Hyannis	Hyannis, Barnstable, MA, USA
41.59233709999999	-70.9784562	New Bedford, Dartmouth	Dartmouth, MA, USA
41.8459347	-71.08282220000001	Berkley	Berkley, MA, USA
42.6112018	-71.5745152	Nantucket, South Groton	Groton, MA, USA
42.1806463	-72.9273224	North Blandford	Blandford, MA, USA
41.8470056	-71.2393933	Rehobath	Rehoboth, MA, USA
41.3922428	-70.6382857	Deep Bottom	Deep Bottom, West Tisbury, MA 02568, USA
42.1070464	-70.75504029999999	Standish	Standish, Marshfield, MA 02050, USA
42.51954	-70.8967155	[Salem]	Salem, MA, USA
42.5445588	-72.6056435	Deerfield	Deerfield, MA, USA
42.288978	-72.838429	Norwich	Norwich, Huntington, MA
41.3431688	-70.74475009999999	Chilmark	Chilmark, MA, USA
42.36592	-73.116214	Washington	Washington, MA, USA
42.0543449	-71.739379	Douglas	Douglas, MA, USA
42.605083	-72.9132446	Hawley	Hawley, MA, USA
42.675924	-70.603833	Sandy Bay, town of Gloucester	Sandy Bay, Rockport, MA, USA
42.359167	-72.296389	Greenwich	Greenwich, Massachusetts, USA
42.4773097	-72.6078667	South Deerfield	South Deerfield, Deerfield, MA, USA
42.67508979999999	-71.4828433	Dunstable	Dunstable, MA, USA
41.975	-72.549444	Enfield	Enfield, CT, USA
42.7595355	-70.94751029999999	Byfield	Byfield, Newbury, MA 01922, USA
42.3917541	-72.8398172	Chesterfield	Chesterfield, MA, USA
42.6731396	-72.6967587	Colrain	Colrain, MA, USA
42.5633282	-70.8899998	Upper Beverly	Northshore Academy Upper School, 70 Balch Street, Beverly, MA 01915, USA
42.1600936	-72.47591899999999	Ludlow	Ludlow, MA, USA
42.7262016	-71.1908924	Methuen	Methuen, MA, USA
42.59509389999999	-71.0161643	Middleton	Middleton, MA, USA
42.1712058	-71.803682	West Millbury	West Millbury, Millbury, MA 01527, USA
42.8104135	-70.8892886	Newburyport, Newbury	Newburyport, MA, USA
41.95589529999999	-70.8148435	Plympton	Plympton, MA, USA
42.7167483	-70.8787277	Rowley	Rowley, MA, USA
42.6775856	-72.18786039999999	Royalston	Royalston, MA, USA
42.5898074	-72.6884244	Shelburne	Shelburne, MA, USA
42.2292572	-72.7300929	Southampton	Southampton, MA, USA
42.4663727	-72.5795115	North Sunderland	Sunderland, MA, USA
42.2598457	-72.2398566	Ware	Ware, MA, USA
42.604261	-70.8911612	Wenham	Wenham, MA, USA
42.1237206	-72.431586	North Wilbraham	Wilbraham, MA, USA
42.7120196	-73.20368979999999	Williamstown	Williamstown, MA, USA
41.59233709999999	-70.9784562	Dartmouth, Westport	Dartmouth, MA, USA
42.18758260000001	-71.30645969999999	Medfield	Medfield, MA, USA
42.3875968	-71.0994968	Somerville	Somerville, MA, USA
42.8525821	-70.94279139999999	Amesbury, Salisbury	Amesbury, USA
42.30163049999999	-71.067605	Dorchester, Quincy	Dorchester, Boston, MA, USA
42.1306522	-71.5411747	Milford, Hopedale	Hopedale, Hopedale, MA, USA
42.1048228	-70.9453218	East Abington	Abington, MA, USA
42.0009318	-71.3322994	Attleboro, South Wrentham	South Street, Massachusetts, USA
41.7614511	-70.71973419999999	Wareham	Wareham, MA, USA
41.686111	-70.076389	Harwich, Dennis	Harwich, MA
42.3319904	-73.0829366	Becket	Becket, MA, USA
42.3973092	-72.9356536	Worthington	Worthington, MA, USA
42.2792551	-72.978712	Chester Village	Chester, MA, USA
42.3782065	-71.0602131	Charlestown, Somerville	Charlestown, Boston, MA, USA
42.70091499999999	-73.1087148	North Adams	North Adams, MA, USA
42.1070383	-72.6203675	West Springfield	West Springfield, MA, USA
42.8525821	-70.94279139999999	Salisbury, Amesbury	Amesbury, USA
42.266757	-72.66897999999999	East Hampton	Easthampton, MA, USA
42.24593309999999	-70.9467133	North Weymouth	North Weymouth, Weymouth, MA 02191, USA
42.6969668	-71.1626756	Lawrence, Methuen	Lawrence, MA, USA
42.3782065	-71.0602131	Boston, Charlestown	Charlestown, Boston, MA, USA
42.0348788	-71.3878512	Sheldonville	Sheldonville, Wrentham, MA 02093, USA
42.2695216	-71.61612939999999	Westborough	Westborough, MA, USA
42.335505	-72.6719853	Florence, Northampton	Florence, Northampton, MA, USA
42.6159285	-70.6619888	West Gloucester	Gloucester, MA, USA
42.2335218	-72.8796017	Huntington	Huntington, MA, USA
42.1945385	-71.8356271	Auburn	Auburn, MA, USA
42.5090217	-73.0457124	Windsor	Windsor, MA, USA
42.3522866	-71.0504229	Suffolk	Suffolk County, MA, USA
39.0014523	-95.669321	Kansas	Southeast Massachusetts Avenue, Topeka, KS 66605, USA
41.6616323	-70.81507420000001	Mattapoisett	Mattapoisett, MA, USA
42.613692	-70.71991299999999	New Gloucester	New Way Lane, Gloucester, MA 01930, USA
41.9120406	-70.7168469	Plymouth County	Plymouth County, MA, USA
42.2851205	-71.13085439999999	Cohasset, Boston	Cohasset Street, Boston, MA 02131, USA
42.2625932	-71.8022934	[Worcester?]	Worcester, MA, USA
42.1398577	-71.5163049	Uxbridge, Leicester, Milford	Milford, MA, USA
43.187603	-72.488929	Rockingham, Vermont	Rockingham, VT
42.5834228	-71.8022955	Fitchburgh	Fitchburg, MA, USA
42.4096528	-71.8571331	Worcester County	Worcester County, MA, USA
42.1498038	-71.8691185	North Oxford	North Oxford, Oxford, MA 01540, USA
42.4072107	-71.3824374	Mercersburg, Pennsylvania	Massachusetts, USA
39.937591	-77.661102	Chambersburg, Pennsylvania	Chambersburg, PA
34.994	-81.474	Carolina	Province of Carolina
42.3600825	-71.0588801	[Boston?]	Boston, MA, USA
41.3804981	-70.645473	Martha's Vineyard	Martha's Vineyard, Massachusetts, USA
42.08209129999999	-70.7367886	Duxborough	Duxborough Trail, Duxbury, MA 02332, USA
43.7041092	-72.2906029	New Hampshire	Dartmouth College: Massachusetts Hall - North, 14 Mass Row, Hanover, NH 03755, USA
41.6259211	-71.2134231	Tiverton	Tiverton, RI, USA
42.238986	-71.369781	Sherburn	Sherborn, MA, USA
51.507351	-0.127758	London	London, England
44.765809	-65.465828	Annapolis Royal	Massachusetts Road, Granville Ferry, NS B0S 1K0, Canada
43.9096758	-69.9619281	Brunswick	Massachusetts Hall, Brunswick, ME 04011, USA
42.373616	-71.109733	Camp Cambridge	Cambridge, MA, USA
42.648611	-70.5930556	Cape Ann	Cape Ann, Rockport, MA 01966, USA
41.8239891	-71.4128343	Providence	Providence, RI, USA
43.6178538	-70.3130255	Scarborough	Massachusetts Avenue, South Portland, ME 04106, USA
42.3097365	-71.1151431	Jamaica Plain	Jamaica Plain, Boston, MA, USA
42.311782	-73.1821623	Berkshire	Berkshire County, MA, USA
42.2875874	-73.3203862	Stockbridge	Stockbridge, MA, USA
42.3459271	-71.5522874	[Marlborough?]	Marlborough, MA, USA
42.3459271	-71.5522874	[Marlborough]	Marlborough, MA, USA
42.2070391	-71.6856236	[Grafton?]	Grafton, MA, USA
41.4558899	-70.6141097	[Tisbury?]	Tisbury, MA, USA
41.8804637	-70.645473	[Plymouth, Sandwich?]	Plymouth, MA, USA
42.3736158	-71.10973349999999	[Cambridge?]	Cambridge, MA, USA
42.7595355	-70.94751029999999	New Rowley, Byfield	Byfield, Newbury, MA, USA
41.7353872	-70.1939087	Dennis, Harwich	Dennis, Dennis, MA, USA
42.3042151	-73.2481951	Lee	Lee, MA, USA
42.35646089999999	-73.2848762	Lenox	Lenox, MA, USA
42.3729519	-73.3676804	Richmond	Richmond, MA, USA
42.8104135	-70.8892886	Newbury, Newburyport	Newburyport, MA, USA
42.592307	-72.79176009999999	Buckland	Buckland, MA, USA
42.5098085	-72.6995349	Conway	Conway, MA, USA
42.0501022	-72.5828642	Longmeadow	Longmeadow, MA, USA
42.3417565	-72.58842220000001	Hadley	Hadley, MA, USA
42.24176749999999	-70.8036544	Cohasset	Cohasset, MA, USA
42.17703969999999	-71.6809011	Saundersville, Farnumsville	Farnumsville, Grafton, MA 01560, USA
42.6871009	-72.0439529	Wincendon	Winchendon, MA, USA
42.4229047	-72.10510020000001	[Barre?]	Barre, MA, USA
41.34372279999999	-70.81475230000001	[Gayhead?]	Gay Head, Aquinnah, MA 02535, USA
42.7695348	-71.0758905	Haverhill, Bradford	Bradford, Haverhill, MA 01835, USA
41.2834704	-70.099451	[Nantucket?]	Nantucket, MA, USA
42.2287065	-71.5225638	Hopkinton, Milford	Hopkinton, Hopkinton, MA 01748, USA
39.2834233	-76.6840263	Baltimore, Maryland	Massachusetts Avenue, Baltimore, MD 21229, USA
40.712784	-74.005941	New York City, New York	New York, New York, USA
42.5750009	-70.93212199999999	[Danvers?]	Danvers, MA, USA
42.4072107	-71.3824374	[Massachusetts]	Massachusetts, USA
42.3782065	-71.0602131	[Charlestown]	Charlestown, Boston, MA, USA
42.1048228	-70.9453218	[Abington?]	Abington, MA, USA
42.4072107	-71.3824374	London, England	Massachusetts, USA
